,Short_Name,School_Latitude,School_Longitude,Student_Growth_Rating
0,LANGFORD,41.784681,-87.657169,AVERAGE
1,WHISTLER,41.683907,-87.655384,BELOW AVERAGE
2,TAFT HS,41.982960999999996,-87.791547,AVERAGE
3,RICHARDSON,41.783826,-87.725422,AVERAGE
4,DRAKE,41.844043,-87.628553,ABOVE AVERAGE
5,TALCOTT,41.892405,-87.673723,BELOW AVERAGE
6,MANN,41.748274,-87.574816,FAR ABOVE AVERAGE
7,HENRY,41.958989,-87.715632,AVERAGE
8,BRUNSON,41.897663,-87.765606,AVERAGE
9,FUNSTON,41.917617,-87.716892,BELOW AVERAGE
10,NEWBERRY,41.913947,-87.64599,AVERAGE
11,WEBSTER,41.869915999999996,-87.727524,FAR ABOVE AVERAGE
12,WARD L,41.893236,-87.718797,ABOVE AVERAGE
13,PEACE AND EDUCATION HS,41.803515000000004,-87.667378,NO DATA AVAILABLE
14,BRENTANO,41.930966,-87.696294,AVERAGE
15,WACKER,41.716193,-87.648044,BELOW AVERAGE
16,CICS - CHICAGOQUEST HS,41.907796999999995,-87.645561,AVERAGE
17,METCALFE,41.669444,-87.63430600000001,FAR BELOW AVERAGE
18,PECK,41.787898999999996,-87.719216,FAR ABOVE AVERAGE
19,TONTI,41.787523,-87.708179,FAR ABOVE AVERAGE
20,PORTAGE PARK,41.956988,-87.76100699999999,AVERAGE
21,LINDBLOM HS,41.782041,-87.671662,AVERAGE
22,NOBEL,41.906155,-87.729955,ABOVE AVERAGE
23,YCCS - TRUMAN,41.965295000000005,-87.659239,NO DATA AVAILABLE
24,REINBERG,41.943019,-87.76898299999999,BELOW AVERAGE
25,EVERETT,41.831555,-87.68131,AVERAGE
26,MORTON,41.889178,-87.705108,FAR ABOVE AVERAGE
27,YCCS - MCKINLEY,41.841331,-87.625331,NO DATA AVAILABLE
28,CHICAGO MATH & SCIENCE HS,42.013031,-87.674818,AVERAGE
29,LINCOLN PARK HS,41.918268,-87.64600899999999,AVERAGE
30,FORT DEARBORN,41.729673,-87.65548100000001,FAR ABOVE AVERAGE
31,HAYT,41.994541,-87.668504,ABOVE AVERAGE
32,WESTCOTT,41.748868,-87.634751,ABOVE AVERAGE
33,LEARN - CAMPBELL,41.877860999999996,-87.698739,AVERAGE
34,SIMEON HS,41.745781,-87.63541,BELOW AVERAGE
35,HAINES,41.849958,-87.633806,FAR ABOVE AVERAGE
36,VAUGHN HS,41.960364,-87.764663,NO DATA AVAILABLE
37,YOUNG HS,41.878603000000005,-87.664233,AVERAGE
38,WILDWOOD,42.007490999999995,-87.778345,ABOVE AVERAGE
39,JORDAN,42.017088,-87.677763,FAR ABOVE AVERAGE
40,ORTIZ DE DOMINGUEZ,41.838791,-87.71719,NO DATA AVAILABLE
41,YCCS - YOUTH CONNECTION,41.832072,-87.62678100000001,NO DATA AVAILABLE
42,WENTWORTH,41.765076,-87.65820500000001,AVERAGE
43,KINZIE,41.789965,-87.779483,ABOVE AVERAGE
44,CURIE HS,41.803059999999995,-87.722042,AVERAGE
45,MCKAY,41.768143,-87.691787,ABOVE AVERAGE
46,SMYSER,41.958868,-87.781975,ABOVE AVERAGE
47,SOR JUANA,41.789597,-87.72638,NO DATA AVAILABLE
48,SOUTHSIDE HS,41.759852,-87.675947,NO DATA AVAILABLE
49,PHILLIPS HS,41.823879999999996,-87.619796,AVERAGE
50,LEE,41.775304999999996,-87.728884,ABOVE AVERAGE
51,HUGHES C,41.860518,-87.73177700000001,ABOVE AVERAGE
52,YORK HS,41.842533,-87.695261,NO DATA AVAILABLE
53,PRESCOTT,41.928841,-87.669528,ABOVE AVERAGE
54,ENGLEWOOD STEM HS,41.770251,-87.639061,0
55,ACERO - TORRES,41.8082,-87.73045,ABOVE AVERAGE
56,HURLEY,41.766785,-87.719541,AVERAGE
57,GALE,42.021091,-87.671939,ABOVE AVERAGE
58,SHERWOOD,41.7908,-87.632279,BELOW AVERAGE
59,CICS - PRAIRIE,41.684433,-87.616888,BELOW AVERAGE
60,COLUMBUS,41.899566,-87.681938,ABOVE AVERAGE
61,TURNER-DREW,41.725609000000006,-87.63016400000001,BELOW AVERAGE
62,HOPE LEARNING ACADEMY,41.883362,-87.668077,AVERAGE
63,LEARN - EXCEL,41.874687,-87.68656800000001,AVERAGE
64,CICS - IRVING PARK,41.950891,-87.710492,AVERAGE
65,YCCS - WEST TOWN,41.890803000000005,-87.702053,NO DATA AVAILABLE
66,YCCS - CHATHAM,41.730131,-87.60698000000001,NO DATA AVAILABLE
67,LOVETT,41.912718,-87.783919,AVERAGE
68,CICS - WEST BELDEN,41.921687,-87.776749,BELOW AVERAGE
69,DVORAK,41.858883,-87.715744,ABOVE AVERAGE
70,ROBINSON,41.817349,-87.599067,FAR ABOVE AVERAGE
71,MOOS,41.912504999999996,-87.69694100000001,ABOVE AVERAGE
72,OGLESBY,41.754670000000004,-87.64546899999999,BELOW AVERAGE
73,DETT,41.879870000000004,-87.68031500000001,BELOW AVERAGE
74,AZUELA,41.771079,-87.73992,ABOVE AVERAGE
75,SMYTH,41.865351000000004,-87.65344499999999,ABOVE AVERAGE
76,SCAMMON,41.941678,-87.732179,FAR ABOVE AVERAGE
77,YCCS - YOUTH DEVELOPMENT,41.751377000000005,-87.64173100000001,NO DATA AVAILABLE
78,VICK,41.688190999999996,-87.685677,NO DATA AVAILABLE
79,MURPHY,41.950078000000005,-87.716832,AVERAGE
80,BARRY,41.932511,-87.739388,ABOVE AVERAGE
81,YCCS - ASSOCIATION HOUSE,41.901571999999994,-87.70685999999999,NO DATA AVAILABLE
82,THOMAS,41.827775,-87.677542,NO DATA AVAILABLE
83,FOREMAN HS,41.939797,-87.75416700000001,BELOW AVERAGE
84,KENNEDY HS,41.789961,-87.78084,BELOW AVERAGE
85,ACERO - DE LAS CASAS,41.859504,-87.667949,AVERAGE
86,INSTITUTO - HEALTH,41.845967,-87.68724,AVERAGE
87,HIBBARD,41.970335,-87.710362,ABOVE AVERAGE
88,DUNBAR HS,41.840226,-87.617637,BELOW AVERAGE
89,MADISON,41.759547999999995,-87.590712,BELOW AVERAGE
90,NORWOOD PARK,41.988153000000004,-87.80297900000001,ABOVE AVERAGE
91,DORE,41.773825865999996,-87.79974193,ABOVE AVERAGE
92,SOUTH LOOP,41.859741,-87.628349,AVERAGE
93,SWIFT,41.989139,-87.65829599999999,AVERAGE
94,CICS - LOOMIS,41.720246,-87.657561,NO DATA AVAILABLE
95,BENNETT,41.710435,-87.61739,FAR ABOVE AVERAGE
96,LAWNDALE,41.86296,-87.71295699999999,AVERAGE
97,ART IN MOTION,41.760034000000005,-87.58332800000001,0
98,TILTON,41.884102,-87.73056600000001,ABOVE AVERAGE
99,KELVYN PARK HS,41.927918,-87.73599899999999,AVERAGE
100,WARREN,41.726763,-87.575353,FAR ABOVE AVERAGE
101,CHICAGO VOCATIONAL HS,41.737173999999996,-87.573268,AVERAGE
102,PARK MANOR,41.766477,-87.61154599999999,ABOVE AVERAGE
103,CARROLL,41.742517,-87.696012,ABOVE AVERAGE
104,YCCS - SCHOLASTIC ACHIEVEMENT,41.880447,-87.74253900000001,NO DATA AVAILABLE
105,PENN,41.858371999999996,-87.722386,FAR ABOVE AVERAGE
106,GRIMES,41.775464,-87.758803,ABOVE AVERAGE
107,BOONE,42.003412,-87.697463,AVERAGE
108,TILDEN HS,41.80751,-87.642966,BELOW AVERAGE
109,PROSSER HS,41.920059,-87.761048,AVERAGE
110,CICS - ELLISON HS,41.748382,-87.66898,BELOW AVERAGE
111,HOWE,41.893612,-87.759398,BELOW AVERAGE
112,GREEN,41.719291999999996,-87.6525,ABOVE AVERAGE
113,DE DIEGO,41.905294,-87.68575600000001,FAR ABOVE AVERAGE
114,COONLEY,41.955553,-87.68376500000001,FAR ABOVE AVERAGE
115,BLAIR,41.776556,-87.790604,NO DATA AVAILABLE
116,YCCS - ADDAMS,41.857208,-87.644888,NO DATA AVAILABLE
117,STEINMETZ HS,41.935634,-87.78351500000001,AVERAGE
118,PHOENIX MILITARY HS,41.879118,-87.68696,AVERAGE
119,WEST RIDGE,42.002959000000004,-87.705917,ABOVE AVERAGE
120,HERNANDEZ,41.793479,-87.71137,AVERAGE
121,GARVEY,41.706603,-87.647577,FAR BELOW AVERAGE
122,ACERO - GARCIA HS,41.809171,-87.730467,AVERAGE
123,MCPHERSON,41.967847,-87.676288,AVERAGE
124,ARIEL,41.811173,-87.597503,AVERAGE
125,SANDOVAL,41.792346,-87.710987,FAR ABOVE AVERAGE
126,ACERO - SANTIAGO,41.900344,-87.68989599999999,ABOVE AVERAGE
127,SHIELDS,41.815909000000005,-87.689647,ABOVE AVERAGE
128,YCCS - LATINO YOUTH,41.854665000000004,-87.69543,NO DATA AVAILABLE
129,PEIRCE,41.983456,-87.66585,ABOVE AVERAGE
130,CLAY,41.654558,-87.544614,AVERAGE
131,BELL,41.949529999999996,-87.686018,ABOVE AVERAGE
132,GARVY,41.976352,-87.796235,AVERAGE
133,MARSH,41.716588,-87.552483,ABOVE AVERAGE
134,DAVIS N,41.821852,-87.700202,AVERAGE
135,LOCKE J,41.931762,-87.795604,ABOVE AVERAGE
136,STOWE,41.911938,-87.713318,ABOVE AVERAGE
137,RICKOVER MILITARY HS,41.989021,-87.665789,AVERAGE
138,DIRKSEN,41.973715000000006,-87.841041,ABOVE AVERAGE
139,SADLOWSKI,41.704859,-87.527985,AVERAGE
140,RAY,41.792348,-87.594752,AVERAGE
141,TALMAN,41.794048,-87.69026099999999,ABOVE AVERAGE
142,PEREZ,41.856029,-87.65798000000001,AVERAGE
143,WELLS HS,41.898995,-87.66748299999999,BELOW AVERAGE
144,YOUNG ES,41.906791,-87.767143,ABOVE AVERAGE
145,LOWELL,41.90652,-87.710217,AVERAGE
146,WORLD LANGUAGE HS,41.834396999999996,-87.735292,ABOVE AVERAGE
147,AUSTIN CCA HS,41.885993,-87.761916,BELOW AVERAGE
148,LELAND,41.873587,-87.749276,BELOW AVERAGE
149,YCCS - ASPIRA PANTOJA,41.938187,-87.727137,NO DATA AVAILABLE
150,CALDWELL,41.739226,-87.580729,FAR ABOVE AVERAGE
151,ASPIRA - EARLY COLLEGE HS,41.937298,-87.727096,AVERAGE
152,CLINTON,41.992540999999996,-87.69836,FAR ABOVE AVERAGE
153,LORCA,41.940026,-87.724783,AVERAGE
154,OGDEN HS,41.893547999999996,-87.659405,AVERAGE
155,KIPLING,41.723627,-87.639521,AVERAGE
156,JACKSON M,41.734125,-87.64676700000001,AVERAGE
157,TAYLOR,41.71547,-87.53297099999999,AVERAGE
158,WEST PARK,41.906907000000004,-87.732443,AVERAGE
159,WASHINGTON H ES,41.728534,-87.596257,AVERAGE
160,KELLER,41.69717,-87.697278,ABOVE AVERAGE
161,CHOPIN,41.896713,-87.688937,AVERAGE
162,GOODE HS,41.75375,-87.70734499999999,AVERAGE
163,LAKE VIEW HS,41.954764000000004,-87.668953,AVERAGE
164,EDWARDS,41.805541999999996,-87.72585600000001,AVERAGE
165,NINOS HEROES,41.743753000000005,-87.551862,ABOVE AVERAGE
166,PRITZKER,41.907053000000005,-87.677761,ABOVE AVERAGE
167,FERNWOOD,41.711184,-87.640414,FAR ABOVE AVERAGE
168,SOLOMON,41.993942,-87.72404300000001,ABOVE AVERAGE
169,POWELL,41.760332,-87.556789,AVERAGE
170,DRUMMOND,41.915914,-87.674495,ABOVE AVERAGE
171,KELLY HS,41.818729,-87.694639,AVERAGE
172,AVONDALE-LOGANDALE,41.93397,-87.70804100000001,ABOVE AVERAGE
173,MONTESSORI ENGLEWOOD,41.774572,-87.676147,FAR BELOW AVERAGE
174,CICS - BASIL,41.794043,-87.670243,AVERAGE
175,U OF C - DONOGHUE,41.827726,-87.608501,AVERAGE
176,LITTLE VILLAGE,41.843697999999996,-87.71731899999999,AVERAGE
177,U OF C - WOODLAWN HS,41.77813,-87.598114,AVERAGE
178,COLLINS HS,41.864149,-87.702042,AVERAGE
179,RUGGLES,41.751946000000004,-87.618066,ABOVE AVERAGE
180,SHERMAN,41.799766,-87.650221,AVERAGE
181,BROWNELL,41.77162,-87.621746,BELOW AVERAGE
182,GARY,41.837065,-87.71869699999999,ABOVE AVERAGE
183,MAYS,41.772727,-87.637277,AVERAGE
184,U OF C - NKO,41.811183,-87.598786,AVERAGE
185,CAMELOT - EXCEL ENGLEWOOD HS,41.763896,-87.649124,NO DATA AVAILABLE
186,CLEVELAND,41.952042,-87.70644300000001,AVERAGE
187,CAMELOT - EXCEL SOUTHSHORE HS,41.759749,-87.556487,NO DATA AVAILABLE
188,NORTH LAWNDALE - CHRISTIANA HS,41.858564,-87.708987,AVERAGE
189,PROVIDENCE ENGLEWOOD,41.775366999999996,-87.663996,BELOW AVERAGE
190,BOND,41.765361,-87.653018,BELOW AVERAGE
191,CAMELOT - SAFE HS,41.753115,-87.551804,NO DATA AVAILABLE
192,HUGHES L,41.705342,-87.629869,AVERAGE
193,AHS - PASSAGES,41.983371000000005,-87.67116,BELOW AVERAGE
194,SHERIDAN,41.8444,-87.64134,FAR ABOVE AVERAGE
195,FULLER,41.818003000000004,-87.611784,AVERAGE
196,KELLMAN,41.870168,-87.702163,BELOW AVERAGE
197,SOUTH SHORE INTL HS,41.758792,-87.576353,BELOW AVERAGE
198,EBERHART,41.77442,-87.707953,AVERAGE
199,STAGG,41.758925,-87.64921700000001,AVERAGE
200,JAMIESON,41.984640999999996,-87.700529,ABOVE AVERAGE
201,YCCS - SULLIVAN,41.746287,-87.578492,NO DATA AVAILABLE
202,CAMELOT - EXCEL HS,41.691953000000005,-87.654248,AVERAGE
203,GAGE PARK HS,41.791013,-87.68895400000001,AVERAGE
204,GRISSOM,41.662481,-87.55330699999999,AVERAGE
205,CHASE,41.917993,-87.694562,ABOVE AVERAGE
206,CANTY,41.948007000000004,-87.829296,AVERAGE
207,STEVENSON,41.747107,-87.731666,AVERAGE
208,PLAMONDON,41.860259,-87.692526,AVERAGE
209,CAMELOT - SAFE ES,41.753116999999996,-87.550513,NO DATA AVAILABLE
210,GREAT LAKES,41.742671,-87.559907,ABOVE AVERAGE
211,CHAVEZ,41.807142999999996,-87.666037,ABOVE AVERAGE
212,ACERO - FUENTES,41.937476000000004,-87.69959399999999,ABOVE AVERAGE
213,VANDERPOEL,41.720817,-87.665559,AVERAGE
214,BRENNEMANN,41.959984000000006,-87.649749,ABOVE AVERAGE
215,ALBANY PARK,41.971503999999996,-87.71060899999999,FAR ABOVE AVERAGE
216,GOUDY,41.975817,-87.657912,ABOVE AVERAGE
217,ORIOLE PARK,41.978501,-87.812054,ABOVE AVERAGE
218,LEGACY,41.856859,-87.73034799999999,AVERAGE
219,BEARD,41.970125,-87.78963,NO DATA AVAILABLE
220,SPENCER,41.884876,-87.750445,FAR ABOVE AVERAGE
221,CICS - BUCKTOWN,41.922415,-87.68135799999999,AVERAGE
222,HAUGAN,41.964029,-87.723128,ABOVE AVERAGE
223,NORTHWEST,41.920555,-87.75785400000001,BELOW AVERAGE
224,NORTH LAWNDALE - COLLINS HS,41.864146000000005,-87.700681,AVERAGE
225,BELDING,41.958938,-87.73402,ABOVE AVERAGE
226,CARNEGIE,41.783367999999996,-87.590795,AVERAGE
227,CICS - NORTHTOWN HS,41.990245,-87.726504,AVERAGE
228,CASSELL,41.687346999999995,-87.703215,AVERAGE
229,CARDENAS,41.848488,-87.71601700000001,ABOVE AVERAGE
230,BELMONT-CRAGIN,41.92095,-87.757343,AVERAGE
231,COURTENAY,41.962308,-87.663853,AVERAGE
232,SCHMID,41.716989,-87.596932,AVERAGE
233,BRIGHTON PARK,41.8239,-87.692077,AVERAGE
234,LLOYD,41.918814000000005,-87.748515,AVERAGE
235,SIMPSON HS,41.864365,-87.668722,NO DATA AVAILABLE
236,PATHWAYS - BRIGHTON PARK HS,41.808226,-87.70264499999999,NO DATA AVAILABLE
237,LEARN - BUTLER,41.867273,-87.710679,BELOW AVERAGE
238,BLAINE,41.950781,-87.664968,AVERAGE
239,HOPE HS,41.793553,-87.641244,AVERAGE
240,CICS - LONGWOOD,41.721221,-87.65576800000001,AVERAGE
241,PATHWAYS - AVONDALE HS,41.939433,-87.705206,NO DATA AVAILABLE
242,CICS - BOND,41.653663,-87.605039,AVERAGE
243,HERZL,41.862080999999996,-87.718994,BELOW AVERAGE
244,JOHNSON,41.861836,-87.70313900000001,ABOVE AVERAGE
245,MAYER,41.923204,-87.657287,AVERAGE
246,MCDADE,41.73455,-87.619214,AVERAGE
247,BURKE,41.79676,-87.616141,AVERAGE
248,ACERO - SOTO HS,41.801762,-87.711025,AVERAGE
249,LEGAL PREP HS,41.881733000000004,-87.733778,AVERAGE
250,BROOKS HS,41.692763,-87.616353,AVERAGE
251,COLEMON,41.677505,-87.658111,ABOVE AVERAGE
252,PATHWAYS - ASHBURN HS,41.735239,-87.70406,NO DATA AVAILABLE
253,IRVING,41.871595,-87.683616,BELOW AVERAGE
254,BEETHOVEN,41.809135,-87.627137,AVERAGE
255,TARKINGTON,41.764407,-87.706445,ABOVE AVERAGE
256,ACERO - ZIZUMBO,41.810134999999995,-87.73049499999999,AVERAGE
257,ALCOTT HS,41.935795,-87.680562,AVERAGE
258,MOVING EVEREST,41.888259000000005,-87.75528100000001,ABOVE AVERAGE
259,ALCOTT ES,41.92985,-87.646413,ABOVE AVERAGE
260,CHICAGO TECH HS,41.863301,-87.659095,AVERAGE
261,CASALS,41.904503000000005,-87.71423399999999,ABOVE AVERAGE
262,ERIE,41.906771,-87.69436400000001,AVERAGE
263,ALDRIDGE,41.657405,-87.606474,ABOVE AVERAGE
264,DUNNE,41.696496,-87.639974,AVERAGE
265,ZAPATA,41.841394,-87.734313,ABOVE AVERAGE
266,CICS - WASHINGTON PARK,41.783617,-87.622068,FAR ABOVE AVERAGE
267,YCCS - AUSTIN CAREER,41.894976,-87.760221,NO DATA AVAILABLE
268,KING ES,41.765335,-87.641335,ABOVE AVERAGE
269,CALMECA,41.824377,-87.71165400000001,FAR ABOVE AVERAGE
270,HALEY,41.686659999999996,-87.63363199999999,AVERAGE
271,COOPER,41.856031,-87.667227,ABOVE AVERAGE
272,BRONZEVILLE HS,41.805203999999996,-87.625004,BELOW AVERAGE
273,CHIARTS HS,41.899377,-87.69494499999999,AVERAGE
274,LENART,41.747186,-87.62804,ABOVE AVERAGE
275,MULTICULTURAL HS,41.835282,-87.735283,AVERAGE
276,PICKARD,41.8529,-87.683291,FAR ABOVE AVERAGE
277,LEARN - 7,41.887409999999996,-87.701397,BELOW AVERAGE
278,CHRISTOPHER,41.801659,-87.68560699999999,FAR ABOVE AVERAGE
279,HAWTHORNE,41.942275,-87.657709,FAR ABOVE AVERAGE
280,ASHE,41.740184,-87.601174,BELOW AVERAGE
281,ACERO - MARQUEZ,41.808309,-87.69739399999999,FAR ABOVE AVERAGE
282,NIGHTINGALE,41.797714,-87.689139,AVERAGE
283,SALAZAR,41.901416999999995,-87.63363199999999,ABOVE AVERAGE
284,INFINITY HS,41.836169,-87.73527800000001,AVERAGE
285,URBAN PREP - BRONZEVILLE HS,41.831118,-87.613629,AVERAGE
286,YCCS - WEST,41.90224,-87.74880999999999,NO DATA AVAILABLE
287,CROWN,41.852663,-87.71247,BELOW AVERAGE
288,AGASSIZ,41.934126,-87.65622900000001,ABOVE AVERAGE
289,AIR FORCE HS,41.828145,-87.632757,AVERAGE
290,CURTIS,41.685418,-87.62165300000001,FAR BELOW AVERAGE
291,ACERO - CISNEROS,41.822884,-87.693996,ABOVE AVERAGE
292,OTIS,41.891806,-87.665426,AVERAGE
293,BURLEY,41.937937,-87.669853,AVERAGE
294,NASH,41.89181,-87.747936,ABOVE AVERAGE
295,NEW FIELD,42.007703,-87.673168,FAR ABOVE AVERAGE
296,MOUNT GREENWOOD,41.695734,-87.70581,ABOVE AVERAGE
297,CAMELOT - EXCEL SOUTHWEST HS,41.765929,-87.69073,NO DATA AVAILABLE
298,HARTE,41.793447,-87.586855,AVERAGE
299,SPRY ES,41.847747,-87.700184,AVERAGE
300,KANOON,41.850771,-87.705112,ABOVE AVERAGE
301,WOODLAWN,41.773365999999996,-87.594392,FAR ABOVE AVERAGE
302,POLARIS,41.89255,-87.707796,AVERAGE
303,YCCS - CAMPOS,41.90285,-87.69600600000001,NO DATA AVAILABLE
304,MCCORMICK,41.842267,-87.7063,ABOVE AVERAGE
305,LOCKE A,41.877248,-87.705235,BELOW AVERAGE
306,PERSHING,41.836527000000004,-87.618338,AVERAGE
307,RICHARDS HS,41.802881,-87.662278,BELOW AVERAGE
308,WALSH,41.854836,-87.64808599999999,AVERAGE
309,TWAIN,41.799046000000004,-87.758928,ABOVE AVERAGE
310,CLISSOLD,41.693026,-87.680897,AVERAGE
311,WHITE,41.672309000000006,-87.650539,AVERAGE
312,HEARST,41.808175,-87.745726,BELOW AVERAGE
313,PULASKI,41.918486,-87.683801,ABOVE AVERAGE
314,RAVENSWOOD,41.960746,-87.67092199999999,FAR ABOVE AVERAGE
315,PERSPECTIVES - LEADERSHIP HS,41.745961,-87.652045,AVERAGE
316,DIXON,41.743669,-87.60997900000001,ABOVE AVERAGE
317,PERSPECTIVES - TECH HS,41.745948999999996,-87.650657,AVERAGE
318,THORP O,41.948571,-87.777631,ABOVE AVERAGE
319,CAMRAS,41.934931,-87.770127,AVERAGE
320,WILLIAMS HS,41.806118,-87.62503000000001,BELOW AVERAGE
321,CATALYST - MARIA,41.770992,-87.693075,BELOW AVERAGE
322,CICS - AVALON/SOUTH SHORE,41.743179,-87.587928,ABOVE AVERAGE
323,SABIN,41.906816,-87.68305,AVERAGE
324,JACKSON A,41.8743,-87.660985,AVERAGE
325,MIRELES,41.731716999999996,-87.552788,AVERAGE
326,LANE TECH HS,41.946645000000004,-87.691013,AVERAGE
327,BEAUBIEN,41.972394,-87.757565,ABOVE AVERAGE
328,LEARN - PERKINS,41.743122,-87.66572099999999,AVERAGE
329,CORKERY,41.845602,-87.731193,AVERAGE
330,MCDOWELL,41.733132,-87.589589,ABOVE AVERAGE
331,DULLES,41.7799,-87.617214,BELOW AVERAGE
332,NEIL,41.738407,-87.620933,AVERAGE
333,PERSPECTIVES - JOSLIN HS,41.855999,-87.62853100000001,AVERAGE
334,KIPP - BLOOM,41.793556,-87.639967,ABOVE AVERAGE
335,WHITNEY,41.84008,-87.725546,ABOVE AVERAGE
336,ASPIRA - BUSINESS & FINANCE HS,41.935726,-87.718204,BELOW AVERAGE
337,SHOOP,41.690919,-87.65866899999999,ABOVE AVERAGE
338,BUDLONG,41.975753999999995,-87.696556,FAR ABOVE AVERAGE
339,CATALYST - CIRCLE ROCK,41.882321999999995,-87.765322,AVERAGE
340,CULLEN,41.700334999999995,-87.611244,AVERAGE
341,KOZMINSKI,41.798002000000004,-87.60248100000001,AVERAGE
342,VON LINNE,41.940009,-87.702635,AVERAGE
343,HIGGINS,41.681031,-87.64699399999999,BELOW AVERAGE
344,KIPP - ACADEMY,41.891816,-87.74661400000001,FAR ABOVE AVERAGE
345,BROWN R,41.664873,-87.638958,BELOW AVERAGE
346,AMUNDSEN HS,41.975066999999996,-87.679484,AVERAGE
347,GRAY,41.948764000000004,-87.757116,AVERAGE
348,BATEMAN,41.958220000000004,-87.702151,ABOVE AVERAGE
349,WESTINGHOUSE HS,41.889977,-87.707332,AVERAGE
350,HANCOCK HS,41.791464000000005,-87.72447,AVERAGE
351,MOLLISON,41.814358,-87.616618,AVERAGE
352,RUDOLPH,41.883568,-87.669477,NO DATA AVAILABLE
353,WATERS,41.964165,-87.69143299999999,ABOVE AVERAGE
354,ADDAMS,41.698739,-87.532976,AVERAGE
355,INSTITUTO - LOZANO HS,41.845957,-87.685903,NO DATA AVAILABLE
356,TILL,41.775424,-87.60935699999999,FAR ABOVE AVERAGE
357,OMBUDSMAN - ROSELAND HS,41.695105,-87.642816,0
358,PATHWAYS - HUMBOLDT PARK HS,41.902840999999995,-87.687946,0
359,LEARN - MIDDLE,41.887413,-87.702704,AVERAGE
360,DEVRY HS,41.941388,-87.690761,ABOVE AVERAGE
361,OMBUDSMAN - SOUTH HS,41.783027000000004,-87.683635,ABOVE AVERAGE
362,VOLTA,41.971634,-87.72460500000001,FAR ABOVE AVERAGE
363,WOODSON,41.814499,-87.608419,AVERAGE
364,CAMERON,41.903791999999996,-87.717927,AVERAGE
365,STOCK,42.016892,-87.814195,NO DATA AVAILABLE
366,YCCS - INNOVATIONS,41.883047,-87.627734,NO DATA AVAILABLE
367,KING HS,41.813675,-87.603874,BELOW AVERAGE
368,VON STEUBEN HS,41.973185,-87.713386,AVERAGE
369,SHOESMITH,41.804294,-87.593905,ABOVE AVERAGE
370,DEVER,41.942552,-87.813132,AVERAGE
371,WADSWORTH,41.773478000000004,-87.60101800000001,AVERAGE
372,ACERO - TAMAYO,41.799929999999996,-87.693862,ABOVE AVERAGE
373,NAMASTE,41.8257,-87.66772399999999,AVERAGE
374,LINCOLN,41.924525,-87.644497,ABOVE AVERAGE
375,OMBUDSMAN - NORTHWEST HS,42.017171000000005,-87.806682,BELOW AVERAGE
376,TELPOCHCALLI,41.847947,-87.69600600000001,AVERAGE
377,WARD J,41.84398,-87.635356,AVERAGE
378,DAWES,41.745078,-87.717353,FAR ABOVE AVERAGE
379,ASPIRA - HAUGAN,41.966406,-87.721825,BELOW AVERAGE
380,OMBUDSMAN - WEST HS,41.874673,-87.687842,NO DATA AVAILABLE
381,JUAREZ HS,41.852667,-87.663732,BELOW AVERAGE
382,RANDOLPH,41.760614000000004,-87.675966,AVERAGE
383,SEWARD,41.810333,-87.668772,ABOVE AVERAGE
384,SUDER,41.883215,-87.67763599999999,AVERAGE
385,DUBOIS,41.653733,-87.61431999999999,BELOW AVERAGE
386,HENDRICKS,41.815788,-87.633664,ABOVE AVERAGE
387,URBAN PREP - ENGLEWOOD HS,41.781498,-87.634357,AVERAGE
388,YATES,41.915039,-87.70028,BELOW AVERAGE
389,BRONZEVILLE CLASSICAL,41.819249,-87.626621,NO DATA AVAILABLE
390,JEFFERSON HS,41.867832,-87.680418,NO DATA AVAILABLE
391,MARINE LEADERSHIP AT AMES HS,41.916045000000004,-87.721742,AVERAGE
392,HANSON PARK,41.923955,-87.761515,ABOVE AVERAGE
393,PAYTON HS,41.901575,-87.635385,AVERAGE
394,SAUCEDO,41.847941,-87.697316,ABOVE AVERAGE
395,ACERO - IDAR,41.801041999999995,-87.708797,ABOVE AVERAGE
396,KIPP - ONE,41.893805,-87.726615,FAR ABOVE AVERAGE
397,LITTLE BLACK PEARL HS,41.809695,-87.59934,BELOW AVERAGE
398,LEWIS,41.906826,-87.75455,AVERAGE
399,DARWIN,41.923322999999996,-87.70541300000001,ABOVE AVERAGE
400,CHICAGO VIRTUAL,41.88055,-87.649772,ABOVE AVERAGE
401,PIRIE,41.74034,-87.60789100000001,AVERAGE
402,KIPP - ASCEND,41.85837,-87.721071,ABOVE AVERAGE
403,CUFFE,41.742452,-87.653633,AVERAGE
404,BARTON,41.754194,-87.670927,AVERAGE
405,HEFFERAN,41.878665000000005,-87.735802,FAR ABOVE AVERAGE
406,GRAHAM ES,41.813303999999995,-87.643344,AVERAGE
407,UPLIFT HS,41.965546999999994,-87.652473,BELOW AVERAGE
408,HEALY,41.839595,-87.640341,ABOVE AVERAGE
409,NIXON,41.919581,-87.73142,AVERAGE
410,POE,41.70263,-87.60641899999999,BELOW AVERAGE
411,OGDEN ES,41.899976,-87.629297,AVERAGE
412,EVERS,41.715665,-87.63930500000001,AVERAGE
413,CICS - WRIGHTWOOD,41.745365,-87.692614,AVERAGE
414,ACERO - PAZ,41.850035,-87.692551,BELOW AVERAGE
415,CHICAGO COLLEGIATE,41.679318,-87.617968,BELOW AVERAGE
416,HAMMOND,41.852719,-87.69624300000001,AVERAGE
417,MARQUETTE,41.773881,-87.69703,ABOVE AVERAGE
418,SPRY HS,41.847762,-87.69894599999999,AVERAGE
419,YCCS - CCA ACADEMY,41.864943,-87.723662,BELOW AVERAGE
420,EPIC HS,41.744849,-87.55022199999999,ABOVE AVERAGE
421,NATIONAL TEACHERS,41.8528,-87.629308,ABOVE AVERAGE
422,EARHART,41.726107,-87.58218199999999,ABOVE AVERAGE
423,LIBBY,41.797684999999994,-87.659933,ABOVE AVERAGE
424,BRIGHT,41.699726,-87.562084,BELOW AVERAGE
425,BOUCHET,41.760847,-87.576075,FAR ABOVE AVERAGE
426,FARNSWORTH,41.97979,-87.766072,ABOVE AVERAGE
427,HARVARD,41.757341,-87.632737,ABOVE AVERAGE
428,HENDERSON,41.790591,-87.671887,AVERAGE
429,WHITTIER,41.850481,-87.673392,ABOVE AVERAGE
430,PILSEN,41.858849,-87.66220899999999,ABOVE AVERAGE
431,LASALLE II,41.902914,-87.67369599999999,ABOVE AVERAGE
432,REILLY,41.941094,-87.719541,ABOVE AVERAGE
433,PICCOLO,41.90014,-87.731261,ABOVE AVERAGE
434,PERSPECTIVES - MATH & SCI HS,41.827784,-87.624788,AVERAGE
435,GALLISTEL,41.706801,-87.535175,ABOVE AVERAGE
436,ACERO - DE LA CRUZ,42.016476000000004,-87.68440600000001,ABOVE AVERAGE
437,CHICAGO ACADEMY ES,41.943056,-87.778187,ABOVE AVERAGE
438,FULTON,41.797579999999996,-87.668436,ABOVE AVERAGE
439,KELLOGG,41.725263,-87.677233,ABOVE AVERAGE
440,FOUNDATIONS,41.694671,-87.65353499999999,AVERAGE
441,JENSEN,41.873815,-87.702241,AVERAGE
442,STONE,41.995359,-87.684793,ABOVE AVERAGE
443,ESMOND,41.68942,-87.669159,FAR ABOVE AVERAGE
444,PETERSON,41.981557,-87.712583,ABOVE AVERAGE
445,PRUSSING,41.965619000000004,-87.772414,AVERAGE
446,WELLS ES,41.827355,-87.61978,AVERAGE
447,SUTHERLAND,41.711445,-87.67682099999999,FAR ABOVE AVERAGE
448,REAVIS,41.804173999999996,-87.604925,AVERAGE
449,CARVER G,41.653702,-87.59951600000001,AVERAGE
450,SOCIAL JUSTICE HS,41.833507,-87.735299,AVERAGE
451,BRIDGE,41.949114,-87.79866899999999,AVERAGE
452,FRAZIER PROSPECTIVE,41.86698,-87.727244,AVERAGE
453,YCCS - VIRTUAL,41.876317,-87.674138,NO DATA AVAILABLE
454,GRESHAM,41.73892,-87.645025,FAR ABOVE AVERAGE
455,MADERO,41.840957,-87.70506400000001,AVERAGE
456,HEDGES,41.807112,-87.673327,AVERAGE
457,MARSHALL HS,41.878444,-87.70805,AVERAGE
458,MORRILL,41.784313,-87.688549,BELOW AVERAGE
459,BARNARD,41.705131,-87.658074,ABOVE AVERAGE
460,YCCS - OLIVE HARVEY,41.712922,-87.592333,NO DATA AVAILABLE
461,PLATO,41.87276,-87.76333699999999,AVERAGE
462,BURNHAM,41.714402,-87.567131,BELOW AVERAGE
463,DEWEY,41.795646000000005,-87.642652,AVERAGE
464,SUMNER,41.870828,-87.733524,AVERAGE
465,ELLINGTON,41.885529999999996,-87.766589,BELOW AVERAGE
466,HITCH,41.983672,-87.779123,ABOVE AVERAGE
467,GOETHE,41.922831,-87.6929,AVERAGE
468,ACERO - BRIGHTON PARK,41.813109000000004,-87.693238,ABOVE AVERAGE
469,ACERO - CLEMENTE,41.917952,-87.78783,ABOVE AVERAGE
470,HOLMES,41.793788,-87.649795,AVERAGE
471,JUNGMAN,41.858065,-87.652302,ABOVE AVERAGE
472,LEARN - SOUTH CHICAGO,41.733333,-87.54558,AVERAGE
473,NORTH RIVER,41.961721000000004,-87.707151,ABOVE AVERAGE
474,SAUGANASH,41.991169,-87.745951,FAR ABOVE AVERAGE
475,OROZCO,41.857755,-87.67520999999999,ABOVE AVERAGE
476,MOZART,41.92091,-87.721888,ABOVE AVERAGE
477,CHRISTOPHER HOUSE,41.922181,-87.757522,AVERAGE
478,CARTER,41.789828,-87.62245300000001,AVERAGE
479,YCCS - PROGRESSIVE LEADERSHIP,41.773962,-87.61574,NO DATA AVAILABLE
480,JAHN,41.939246999999995,-87.67581,AVERAGE
481,RUIZ,41.848101,-87.680745,FAR ABOVE AVERAGE
482,WASHINGTON G ES,41.688131,-87.536015,AVERAGE
483,REVERE,41.764196000000005,-87.600177,ABOVE AVERAGE
484,HORIZON - SOUTHWEST,41.795201,-87.683963,AVERAGE
485,MURRAY,41.798535,-87.59334,AVERAGE
486,HARLAN HS,41.718371999999995,-87.620623,BELOW AVERAGE
487,RABY HS,41.88621,-87.715423,BELOW AVERAGE
488,SAYRE,41.914151000000004,-87.798721,AVERAGE
489,DURKIN PARK,41.738844,-87.729955,ABOVE AVERAGE
490,HIRSCH HS,41.753748,-87.601727,BELOW AVERAGE
491,SOLORIO HS,41.795201,-87.71105899999999,AVERAGE
492,FOSTER PARK,41.738425,-87.668099,AVERAGE
493,PRIETO,41.921318,-87.765781,ABOVE AVERAGE
494,HAMILTON,41.94522,-87.670865,ABOVE AVERAGE
495,ORR HS,41.894449,-87.726166,BELOW AVERAGE
496,BASS,41.774246000000005,-87.653532,ABOVE AVERAGE
497,BLACK,41.729692,-87.576643,AVERAGE
498,CHICAGO MILITARY HS,41.830555,-87.61921600000001,AVERAGE
499,ARMSTRONG G,42.01015,-87.684442,FAR ABOVE AVERAGE
500,CARSON,41.793271999999995,-87.6878,ABOVE AVERAGE
501,CLAREMONT,41.777511,-87.681061,BELOW AVERAGE
502,AUDUBON,41.945062,-87.68104100000001,ABOVE AVERAGE
503,CHICAGO AGRICULTURE HS,41.691221,-87.71777,AVERAGE
504,BRADWELL,41.754365,-87.557142,AVERAGE
505,CHAPPELL,41.975894,-87.68326400000001,ABOVE AVERAGE
506,BURNSIDE,41.728481,-87.607435,ABOVE AVERAGE
507,BYRNE,41.795031,-87.79154399999999,AVERAGE
508,ARMOUR,41.833853999999995,-87.650653,BELOW AVERAGE
509,BEIDLER,41.885321000000005,-87.705855,ABOVE AVERAGE
510,BEASLEY,41.798465,-87.625692,AVERAGE
511,BROWN W,41.882996999999996,-87.670682,ABOVE AVERAGE
512,CARVER MILITARY HS,41.656290000000006,-87.59062,AVERAGE
513,RYDER,41.735378999999995,-87.63884300000001,FAR ABOVE AVERAGE
514,BURR,41.912358000000005,-87.668661,AVERAGE
515,ASHBURN,41.742351,-87.70961,AVERAGE
516,BACK OF THE YARDS HS,41.808413,-87.677541,AVERAGE
517,CLARK ES,41.867813,-87.770418,ABOVE AVERAGE
518,BOGAN HS,41.749376,-87.721097,AVERAGE
519,CHALMERS,41.866434999999996,-87.695259,AVERAGE
520,AVALON PARK,41.748247,-87.591654,ABOVE AVERAGE
521,CLARK HS,41.872885,-87.753325,BELOW AVERAGE
522,GLOBAL CITIZENSHIP,41.807579,-87.74009699999999,AVERAGE
523,GILLESPIE,41.725332,-87.623719,AVERAGE
524,CRANE MEDICAL HS,41.876946999999994,-87.683301,AVERAGE
525,COOK,41.745237,-87.659775,ABOVE AVERAGE
526,INTRINSIC HS,41.938988,-87.741129,ABOVE AVERAGE
527,HALE,41.780192,-87.776579,ABOVE AVERAGE
528,EDGEBROOK,41.999437,-87.76184,ABOVE AVERAGE
529,HAMPTON,41.753457,-87.708731,AVERAGE
530,FRANKLIN,41.9066,-87.635513,ABOVE AVERAGE
531,DALEY,41.802343,-87.672206,AVERAGE
532,OWEN,41.74285,-87.705749,AVERAGE
533,SULLIVAN HS,42.002688,-87.66919200000001,AVERAGE
534,DECATUR,42.009289,-87.704619,ABOVE AVERAGE
535,DISNEY II ES,41.950461,-87.730678,AVERAGE
536,DEPRIEST,41.877978999999996,-87.76629799999999,AVERAGE
537,COLUMBIA EXPLORERS,41.811069,-87.704199,ABOVE AVERAGE
538,NICHOLSON,41.784942,-87.647453,FAR BELOW AVERAGE
539,FAIRFIELD,41.780904,-87.692115,ABOVE AVERAGE
540,PALMER,41.973289,-87.739213,ABOVE AVERAGE
541,CORLISS HS,41.70666,-87.60121600000001,BELOW AVERAGE
542,FRAZIER CHARTER,41.862077,-87.717642,BELOW AVERAGE
543,DENEEN,41.76249,-87.623345,BELOW AVERAGE
544,SCHURZ HS,41.946365,-87.735612,AVERAGE
545,EDISON PARK,41.994238,-87.813771,BELOW AVERAGE
546,ONAHAN,41.993790000000004,-87.79310799999999,AVERAGE
547,LASALLE,41.9139,-87.63756500000001,AVERAGE
548,DISNEY II HS,41.952488,-87.72136400000001,ABOVE AVERAGE
549,EBINGER,42.004408000000005,-87.81116999999999,ABOVE AVERAGE
550,GUNSAULUS,41.813007,-87.699364,ABOVE AVERAGE
551,EDISON,41.971506,-87.709304,ABOVE AVERAGE
552,MITCHELL,41.892082,-87.683185,AVERAGE
553,NORTHSIDE PREP HS,41.981315,-87.708708,AVERAGE
554,DYETT ARTS HS,41.801204,-87.612239,BELOW AVERAGE
555,MCCLELLAN,41.829993,-87.641103,FAR ABOVE AVERAGE
556,PASTEUR,41.786895,-87.73266600000001,ABOVE AVERAGE
557,JONES HS,41.873065999999994,-87.627675,AVERAGE
558,HAMLINE,41.807241999999995,-87.661175,AVERAGE
559,OKEEFFE,41.768602,-87.572806,AVERAGE
560,DAVIS M,41.771221000000004,-87.66653000000001,ABOVE AVERAGE
561,MORGAN PARK HS,41.692035,-87.665658,AVERAGE
562,CHICAGO ACADEMY HS,41.943054,-87.776847,AVERAGE
563,NORTHSIDE LEARNING HS,41.982973,-87.722386,NO DATA AVAILABLE
564,HUBBARD HS,41.780526,-87.718014,AVERAGE
565,DOUGLASS HS,41.890369,-87.767668,AVERAGE
566,SENN HS,41.989028999999995,-87.667136,AVERAGE
567,EARLE,41.781225,-87.675547,AVERAGE
568,ROOSEVELT HS,41.964828000000004,-87.71481899999999,AVERAGE
569,MCNAIR,41.897819,-87.74673100000001,FAR ABOVE AVERAGE
570,KILMER,42.003640000000004,-87.668222,AVERAGE
571,PARKSIDE,41.768555,-87.582954,FAR ABOVE AVERAGE
572,FENGER HS,41.689951,-87.63757199999999,BELOW AVERAGE
573,KERSHAW,41.776453000000004,-87.64089200000001,ABOVE AVERAGE
574,HOYNE,41.733338,-87.568228,AVERAGE
575,FIELD,42.009664,-87.669985,AVERAGE
576,ROGERS,42.015265,-87.697185,ABOVE AVERAGE
577,PARKER,41.77078,-87.634086,AVERAGE
578,HAY,41.899171,-87.755813,BELOW AVERAGE
579,MCCUTCHEON,41.970949,-87.654758,BELOW AVERAGE
580,JOPLIN,41.749339,-87.669366,ABOVE AVERAGE
581,JULIAN HS,41.705859000000004,-87.653749,BELOW AVERAGE
582,FALCONER,41.935784999999996,-87.74933100000001,ABOVE AVERAGE
583,OWENS,41.670618,-87.622546,AVERAGE
584,MATHER HS,41.987589,-87.702496,AVERAGE
585,HARPER HS,41.775124,-87.669089,BELOW AVERAGE
586,MOUNT VERNON,41.701952,-87.64765200000001,AVERAGE
587,OTOOLE,41.774571,-87.674865,AVERAGE
588,DOOLITTLE,41.831121,-87.612275,AVERAGE
589,CATHER,41.88295,-87.699187,FAR ABOVE AVERAGE
590,GREENE,41.829669,-87.671492,ABOVE AVERAGE
591,MANIERRE,41.908246999999996,-87.639827,FAR BELOW AVERAGE
592,MELODY,41.878799,-87.724661,AVERAGE
593,GRAHAM HS,41.849675,-87.625315,NO DATA AVAILABLE
594,HYDE PARK HS,41.782257,-87.58661500000001,BELOW AVERAGE
595,SCHUBERT,41.930403000000005,-87.76119,AVERAGE
596,FISKE,41.785183,-87.608633,ABOVE AVERAGE
597,GREGORY,41.870742,-87.718666,BELOW AVERAGE
598,INTER-AMERICAN,41.949003000000005,-87.651573,FAR ABOVE AVERAGE
599,MASON,41.856864,-87.731672,AVERAGE
600,FINKL,41.849215,-87.685668,AVERAGE
601,FARADAY,41.879714,-87.70809200000001,FAR ABOVE AVERAGE
602,LYON,41.934191999999996,-87.777174,ABOVE AVERAGE
603,MONROE,41.929989,-87.719224,AVERAGE
604,LARA,41.80977,-87.67218199999999,ABOVE AVERAGE
605,MCAULIFFE,41.914815999999995,-87.72393100000001,AVERAGE
606,NORTH-GRAND HS,41.911674,-87.735238,AVERAGE
607,KENWOOD HS,41.803771999999995,-87.59042099999999,AVERAGE
608,ERICSON,41.875744,-87.715804,AVERAGE
609,GALILEO,41.871255,-87.653366,ABOVE AVERAGE
610,LOZANO,41.908885999999995,-87.665093,AVERAGE
611,EVERGREEN,41.829356,-87.667817,ABOVE AVERAGE
612,HOLDEN,41.838027000000004,-87.65379200000001,FAR ABOVE AVERAGE
613,GREELEY,41.95281,-87.65098,ABOVE AVERAGE
614,FARRAGUT HS,41.84856,-87.708706,AVERAGE
615,BURROUGHS,41.828868,-87.69245699999999,ABOVE AVERAGE
616,NETTELHORST,41.941637,-87.644561,AVERAGE
617,MANLEY HS,41.870939,-87.699896,BELOW AVERAGE
618,SAWYER,41.797498,-87.70500600000001,AVERAGE
619,NOBLE - ROWE CLARK HS,41.895362,-87.718047,ABOVE AVERAGE
620,STEM,41.868576000000004,-87.664969,AVERAGE
621,NOBLE - BAKER HS,41.734621999999995,-87.556201,ABOVE AVERAGE
622,SKINNER NORTH,41.905109,-87.644841,ABOVE AVERAGE
623,NOBLE - MANSUETO HS,41.800136,-87.728003,ABOVE AVERAGE
624,DISNEY,41.956815999999996,-87.64608299999999,AVERAGE
625,NOBLE - BULLS HS,41.878809000000004,-87.678195,FAR ABOVE AVERAGE
626,NOBLE - PRITZKER HS,41.915214,-87.730127,ABOVE AVERAGE
627,NOBLE - ACADEMY HS,41.906878999999996,-87.645577,ABOVE AVERAGE
628,NOBLE - DRW HS,41.869328,-87.71165400000001,AVERAGE
629,NOBLE - HANSBERRY HS,41.734442,-87.650987,ABOVE AVERAGE
630,ROWE,41.907796999999995,-87.66407199999999,ABOVE AVERAGE
631,NOBLE - ITW SPEER HS,41.92563,-87.769808,ABOVE AVERAGE
632,NOBLE - UIC HS,41.865817,-87.67611099999999,FAR ABOVE AVERAGE
633,NOBLE - JOHNSON HS,41.778369,-87.63511700000001,AVERAGE
634,CLEMENTE HS,41.902626,-87.68690600000001,AVERAGE
635,BURBANK,41.917598,-87.7827,AVERAGE
636,NOBLE - NOBLE HS,41.900191,-87.662628,FAR ABOVE AVERAGE
637,NOBLE - RAUNER HS,41.892425,-87.660859,ABOVE AVERAGE
638,SKINNER,41.879103,-87.659419,ABOVE AVERAGE
639,NOBLE - COMER,41.764083,-87.601974,ABOVE AVERAGE
640,NOBLE - GOLDER HS,41.895282,-87.66448299999999,ABOVE AVERAGE
641,NOBLE - BUTLER HS,41.706666999999996,-87.60257299999999,ABOVE AVERAGE
642,NOBLE - MUCHIN HS,41.882740000000005,-87.626338,ABOVE AVERAGE
643,LAVIZZO,41.696262,-87.62714799999999,ABOVE AVERAGE
644,BOWEN HS,41.734627,-87.55755,BELOW AVERAGE
645,TANNER,41.760673,-87.606791,FAR ABOVE AVERAGE
646,WASHINGTON HS,41.688137,-87.53757,AVERAGE
647,COLES,41.741413,-87.56597,AVERAGE
648,SOUTH SHORE ES,41.767755,-87.590396,AVERAGE
649,NEW SULLIVAN,41.743829,-87.542928,ABOVE AVERAGE
650,THORP J,41.733323999999996,-87.54428,ABOVE AVERAGE
651,SHIELDS MIDDLE,41.806490999999994,-87.68978,AVERAGE
652,SMITH,41.707558,-87.60466,ABOVE AVERAGE
653,PULLMAN,41.688819,-87.609431,BELOW AVERAGE
